Наименование,Описание,Рубрики,Адрес,Комментарий к адресу,Почтовый индекс,Микрорайон,Район,Город,Округ,Регион,Страна,Часы работы,Часовой пояс,Рейтинг,Количество отзывов,Телефон 1,Телефон 2,Телефон 3,E-mail 1,E-mail 2,Веб-сайт 1,Веб-сайт 2,Веб-сайт 3,Twitter,ВКонтакте,WhatsApp 1,WhatsApp 2,WhatsApp 3,Viber 1,Viber 2,Viber 3,Telegram 1,Telegram 2,Telegram 3,YouTube,Широта,Долгота,2GIS URL,Тип
Торговый комплекс Докер,,,,,,,,Екатеринбург,Екатеринбург городской округ,Свердловская область,Россия,,,0.0,0,,,,,,,,,,,,,,,,,,,,,56.762006,60.807137,https://2gis.com/firm/1267324589965484,adm_div
Дом дверей & кухонь,,Мебель на заказ; Межкомнатные двери; Входные двери; Корпусная мебель; Мебель для кухни,"Хибиногорский переулок, 4",8/3 офис; 1 этаж,620010,Химмаш м-н,Чкаловский район,Екатеринбург,Екатеринбург городской округ,Свердловская область,Россия,Пн: 10:00-19:00; Вт: 10:00-19:00; Ср: 10:00-19:00; Чт: 10:00-19:00; Пт: 10:00-19:00; Сб: 12:00-16:00,+05:00,4.3,6,89122973589,,,,,,,,,https://vk.com/domdvery06,,,,,,,,,,,56.755587,60.704174,https://2gis.com/firm/1267165676662577,branch
Дом-студия,мебельная студия,Мебель на заказ; Мебельные магазины; Мебель для кухни; Детская мебель,"Верх-Исетский бульвар, 13",А корпус; 202а офис; 2 этаж,620028,ВИЗ м-н,Верх-Исетский район,Екатеринбург,Екатеринбург городской округ,Свердловская область,Россия,Пн: 10:00-20:00; Вт: 10:00-20:00; Ср: 10:00-20:00; Чт: 10:00-20:00; Пт: 10:00-20:00; Сб: 10:00-20:00; Вс: 10:00-20:00,+05:00,3.3,23,89126500014,89924281350,,,,http://t.me/domstudia,,,,,https://wa.me/79126500014,,,,,,,,,,56.838101,60.574252,https://2gis.com/firm/1267165676549586,branch
Дом кухни,,Мебель на заказ; Мебель для кухни; Корпусная мебель; Офисная мебель; Детская мебель,"Ленинградская улица, 9",цокольный этаж,624250,,,Заречный,Заречный муниципальный округ,Свердловская область,Россия,Пн: 10:00-20:00; Вт: 10:00-20:00; Ср: 10:00-20:00; Чт: 10:00-20:00; Пт: 10:00-20:00 (по предварительной записи),+05:00,,,89222969404,,,,,,,,,https://vk.com/ooo_dom_kuhni,https://wa.me/79222969404,,,,,,,,,,56.797224,61.321356,https://2gis.com/firm/70000001059497041,branch
Дом мебели,г. Полевской,Мебель на заказ; Мебельные магазины; Мягкая мебель; Корпусная мебель; Мебель для кухни,"улица Ленина, 9",1 этаж,623388,Ялунина м-н,,Полевской,Полевской муниципальный округ,Свердловская область,Россия,Пн: 10:00-19:00; Вт: 10:00-19:00; Ср: 10:00-19:00; Чт: 10:00-19:00; Пт: 10:00-19:00; Сб: 10:00-18:00; Вс: 10:00-18:00,+05:00,,,89000363533,,,,,,,,,https://vk.com/id791899364,,,,,,,,,,,56.494113,60.237193,https://2gis.com/firm/70000001075433988,branch
Ева,,Мебель на заказ; Мебель для кухни; Корпусная мебель; Детская мебель,"проспект Академика Сахарова, 51",1 этаж,620105,,Академический район,Екатеринбург,Екатеринбург городской округ,Свердловская область,Россия,Пн: 10:00-19:00; Вт: 10:00-19:00; Ср: 10:00-19:00; Чт: 10:00-19:00; Пт: 10:00-19:00; Сб: 11:00-18:00 (по предварительной записи),+05:00,5.0,7,89068012244,89655154219,,,,,,,,https://vk.com/id159460699,https://wa.me/79068012244,,,,,,,,,,56.784339,60.516692,https://2gis.com/firm/70000001023749072,branch
Европей,компания по производству корпусной и нестандартной мебели,Мебель на заказ; Корпусная мебель,"улица Толедова, 43Б",2 этаж,620990,Заречный м-н,Верх-Исетский район,Екатеринбург,Екатеринбург городской округ,Свердловская область,Россия,Пн: 09:00-18:00; Вт: 09:00-18:00; Ср: 09:00-18:00; Чт: 09:00-18:00; Пт: 09:00-18:00,+05:00,,,89028780363,,,,,,,,,,,,,,,,,,,,56.854083,60.546713,https://2gis.com/firm/70000001043219787,branch
Екитчен,,Мебель на заказ; Корпусная мебель,"улица Белинского, 108",,620063,Центр м-н,Ленинский район,Екатеринбург,Екатеринбург городской округ,Свердловская область,Россия,Пн: 10:00-20:00; Вт: 10:00-20:00; Ср: 10:00-20:00; Чт: 10:00-20:00; Пт: 10:00-20:00; Сб: 10:00-20:00; Вс: 10:00-20:00,+05:00,,,83433009878,,,,,,,,,,,,,,,,,,,,56.819848,60.618228,https://2gis.com/firm/70000001113399299,branch
Екухни,салон кухонной мебели,Мебель на заказ; Мебельные магазины; Мебель для кухни; Корпусная мебель,"улица Радищева, 12",310 офис; А секция; 3 этаж,620014,Центр м-н,Ленинский район,Екатеринбург,Екатеринбург городской округ,Свердловская область,Россия,Пн: 09:00-21:00; Вт: 09:00-21:00; Ср: 09:00-21:00; Чт: 09:00-21:00; Пт: 09:00-21:00; Сб: 09:00-21:00; Вс: 09:00-21:00 (по предварительной записи),+05:00,4.8,381,83433511948,,,ekuhni.rf@yandex.ru,,http://xn--e1akjxk5d.xn--p1ai/?utm_source=2gis&utm_medium=page2gis&utm_campaign=ekb,,,,https://vk.com/ekuhni_rf,https://wa.me/79675552124,,,,,,https://t.me/+79675552124,https://t.me/79675552124,,,56.830764,60.597695,https://2gis.com/firm/70000001030413073,branch
Загородный стиль,,Мебель на заказ; Садово-парковая мебель; Товары для бань и саун; Корпусная мебель,"Лесная улица, 112",,624053,Большая медведица коттеджный пос.,,,Верхнее Дуброво городской округ,Свердловская область,Россия,Пн: 10:00-18:00; Вт: 10:00-18:00; Ср: 10:00-18:00; Чт: 10:00-18:00; Пт: 10:00-18:00; Сб: 10:00-18:00; Вс: 10:00-18:00,+05:00,,,89045440855,,,,,,,,,,,,,,,,,,,,56.726989,61.089465,https://2gis.com/firm/70000001115018067,branch
Замес,производственная компания,Мебель на заказ; Мебельные фасады; Мебель для кухни; Мебель для ванных комнат,"Ленинский посёлок, 44а",3 помещение; 1 этаж,623700,,,Березовский,Березовский муниципальный округ,Свердловская область,Россия,Пн: 10:00-19:00; Вт: 10:00-19:00; Ср: 10:00-19:00; Чт: 10:00-19:00; Пт: 10:00-19:00,+05:00,,,89826035533,89502002983,,,,,,,,,https://wa.me/79826035533,https://wa.me/79502002983,,,,,,,,,56.934161,60.785272,https://2gis.com/firm/70000001047885077,branch
Екб Восток,,Мебель на заказ; Корпусная мебель; Мягкая мебель; Светотехника; Комплектующие для дверей,"улица Энгельса, 19",,623750,,,Реж,Режевской муниципальный округ,Свердловская область,Россия,,+05:00,,,,,,,,,,,,,,,,,,,,,,,57.373078,61.386945,https://2gis.com/firm/70000001075825400,branch
Золотая пчела,компания по производству мебели,Мебель на заказ; Мягкая мебель; Корпусная мебель; Мебель для кухни; Офисная мебель,"Западная промышленная зона, 24а/2",,623700,,,Березовский,Березовский муниципальный округ,Свердловская область,Россия,Пн: 08:00-17:00; Вт: 08:00-17:00; Ср: 08:00-17:00; Чт: 08:00-17:00; Пт: 08:00-17:00,+05:00,,,89502072775,89122588512,,,,,,,,https://vk.com/golden_bee96,,,,,,,,,,,56.92668,60.762863,https://2gis.com/firm/70000001115022819,branch
Золотая пчела,компания по производству мебели,Мебель на заказ; Корпусная мебель; Мебель для кухни; Мягкая мебель; Офисная мебель,"Западная промышленная зона, 24/1а",19 офис; 2 этаж,623700,,,Березовский,Березовский муниципальный округ,Свердловская область,Россия,Пн: 09:00-18:00; Вт: 09:00-18:00; Ср: 09:00-18:00; Чт: 09:00-18:00; Пт: 09:00-18:00,+05:00,4.2,10,89122588512,89502072775,,,,,,,,https://vk.com/goldenbee_ekb,https://wa.me/79502072775,https://wa.me/79122588512,,,,,,,,,56.927236,60.763228,https://2gis.com/firm/1267165676720567,branch
Золотая пчела,студия уюта мебели,Мебель на заказ; Мягкая мебель; Корпусная мебель; Мебель для кухни; Мебельная фурнитура,"улица Попова, 20",3 офис; 1 этаж; вход со двора; домофон 101,620014,Центр м-н,Ленинский район,Екатеринбург,Екатеринбург городской округ,Свердловская область,Россия,Пн: 10:00-19:00; Вт: 10:00-19:00; Ср: 10:00-19:00; Чт: 10:00-19:00; Пт: 10:00-19:00; Сб: 10:00-19:00; Вс: 10:00-19:00 (по предварительной записи: сб-вс),+05:00,,,89122588512,89090025200,,,,http://t.me/goldenbee96,,,,https://vk.com/goldenbee_ekb,https://wa.me/79122588512,,,,,,https://t.me/goldenbee96,,,,56.834598,60.585095,https://2gis.com/firm/70000001110257225,branch
И4л,,Мебель на заказ; Деревообработка; Фрезеровка неметаллов,"Удельная улица, 5 лит З",,620036,Широкая Речка м-н,Академический район,Екатеринбург,Екатеринбург городской округ,Свердловская область,Россия,Пн: 09:00-18:00; Вт: 09:00-18:00; Ср: 09:00-18:00; Чт: 09:00-18:00; Пт: 09:00-18:00,+05:00,5.0,1,89237314447,,,,,,,,,https://vk.com/i4lek,https://wa.me/79237314447,,,,,,,,,,56.796586,60.485084,https://2gis.com/firm/70000001099134822,branch
Игуана-мебель,салон столов и стульев,Мебель на заказ; Мебельные магазины; Мебель для кухни; Мебель для общественного питания,"40-летия Комсомола, 38н",Б корпус; 1 этаж,620072,ЖБИ м-н,Кировский район,Екатеринбург,Екатеринбург городской округ,Свердловская область,Россия,Пн: 10:00-21:00; Вт: 10:00-21:00; Ср: 10:00-21:00; Чт: 10:00-21:00; Пт: 10:00-21:00; Сб: 10:00-21:00; Вс: 10:00-21:00,+05:00,1.3,7,89033555234,,,,,,,,,,,,,,,,,,,,56.82412,60.705769,https://2gis.com/firm/70000001035583685,branch
Империя мебели,мебельный магазин,Мебель на заказ; Мебельные магазины; Корпусная мебель; Мягкая мебель,"улица Халтурина, 55",цокольный этаж; магазин Спортмастер,620034,Заречный м-н,Верх-Исетский район,Екатеринбург,Екатеринбург городской округ,Свердловская область,Россия,Пн: 10:00-22:00; Вт: 10:00-22:00; Ср: 10:00-22:00; Чт: 10:00-22:00; Пт: 10:00-22:00; Сб: 10:00-22:00; Вс: 10:00-22:00,+05:00,5.0,1,,,,,,,,,,https://vk.com/id601247766,,,,,,,,,,,56.852755,60.550191,https://2gis.com/firm/70000001112956543,branch
Ингрид,мебельный салон,Мебель на заказ; Мебельные магазины; Мебель для кухни; Корпусная мебель; Мягкая мебель,"улица Косарева, 5",1 этаж,620010,Химмаш м-н,Чкаловский район,Екатеринбург,Екатеринбург городской округ,Свердловская область,Россия,Пн: 10:00-20:00; Вт: 10:00-20:00; Ср: 10:00-20:00; Чт: 10:00-20:00; Пт: 10:00-20:00; Сб: 10:00-20:00; Вс: 10:00-18:00,+05:00,1.0,3,83432584248,,,,,,,,,,,,,,,,,,,,56.7493,60.6971,https://2gis.com/firm/1267165676658368,branch
ИнтерДом,,Мебель на заказ; Корпусная мебель,,,620010,Химмаш м-н,Чкаловский район,Екатеринбург,Екатеринбург городской округ,Свердловская область,Россия,Пн: 09:00-19:00; Вт: 09:00-19:00; Ср: 09:00-19:00; Чт: 09:00-19:00; Пт: 09:00-19:00; Сб: 09:00-19:00; Вс: 09:00-19:00,+05:00,,,83432003102,,,,,,,,,https://vk.com/interdom196,,,,,,,,,,,56.750455,60.743838,https://2gis.com/firm/70000001112707157,branch
Интерес,мебельная фабрика,Мебель на заказ; Мебельные магазины; Корпусная мебель; Детская мебель; Мебель для ванных комнат; Мебель для кухни; Офисная мебель,"Верх-Исетский бульвар, 13в",А корпус; 2 этаж; справа от лестницы и лифта,620028,ВИЗ м-н,Верх-Исетский район,Екатеринбург,Екатеринбург городской округ,Свердловская область,Россия,Пн: 10:00-20:00; Вт: 10:00-20:00; Ср: 10:00-20:00; Чт: 10:00-20:00; Пт: 10:00-20:00; Сб: 10:00-20:00; Вс: 10:00-20:00,+05:00,5.0,10,83433121462 (единый номер),,,,,http://t.me/mebel_fabrika_interes_ekb,,,,https://vk.com/shkaf.kupe,,,,,,,,,,,56.838048,60.574447,https://2gis.com/firm/70000001099888607,branch
Кмк,компания,Мебель на заказ; Корпусная мебель; Детская мебель; Офисная мебель,"Сибирский тракт 14 километр, лит 98",,620007,Новокольцовский м-н,Октябрьский район,Екатеринбург,Екатеринбург городской округ,Свердловская область,Россия,Пн: 09:00-17:00; Вт: 09:00-17:00; Ср: 09:00-17:00; Чт: 09:00-17:00; Пт: 09:00-17:00; Сб: 09:00-16:00,+05:00,,,89122327070,,,,,,,,,https://vk.com/kmkgrup,https://wa.me/79122267070,,,,,,,,,,56.780951,60.774526,https://2gis.com/firm/70000001072686931,branch
Компания по изготовлению мебели,,Мебель на заказ; Корпусная мебель,"Новокольцовская улица, 5",,620060,Кольцово м-н,Октябрьский район,Екатеринбург,Екатеринбург городской округ,Свердловская область,Россия,Пн: 09:30-18:00; Вт: 09:30-18:00; Ср: 09:30-18:00; Чт: 09:30-18:00; Пт: 09:30-18:00,+05:00,,,89025032117,,,,,,,,,,,,,,,,,,,,56.762542,60.825911,https://2gis.com/firm/70000001113161628,branch
Компания по изготовлению мебели,,Мебель на заказ; Корпусная мебель; Офисная мебель,"улица Чапаева, 6",21 офис; 2 этаж,624003,,,Арамиль,Арамильский городской округ,Свердловская область,Россия,Пн: 10:00-19:00; Вт: 10:00-19:00; Ср: 10:00-19:00; Чт: 10:00-19:00; Пт: 10:00-19:00; Сб: 10:00-19:00; Вс: 10:00-19:00 (по предварительному звонку),+05:00,5.0,2,89827498519,,,,,,,,,,https://wa.me/79827498519,,,,,,,,,,56.697095,60.834532,https://2gis.com/firm/70000001088774007,branch
Компания по продаже мебели,,Мебель на заказ; Корпусная мебель; Мягкая мебель; Мебель для кухни; Матрасы,"улица Коммуны, 34",1 этаж,624022,,,Сысерть,Сысертский муниципальный округ,Свердловская область,Россия,Пн: 11:00-19:00; Вт: 11:00-19:00; Ср: 11:00-19:00; Чт: 11:00-19:00; Пт: 11:00-19:00; Сб: 11:00-17:00; Вс: 11:00-16:00,+05:00,,,89126210623,,,,,,,,,,https://wa.me/79126210623,,,,,,,,,,56.504695,60.815506,https://2gis.com/firm/70000001062034762,branch
Компания по производству кроватей и матрасов,,Мебель на заказ; Матрасы; Корпусная мебель,"Самолётная улица, 55",,620087,Уктус м-н,Чкаловский район,Екатеринбург,Екатеринбург городской округ,Свердловская область,Россия,Пн: 09:00-20:00; Вт: 09:00-20:00; Ср: 09:00-20:00; Чт: 09:00-20:00; Пт: 09:00-20:00; Сб: 11:00-16:00; Вс: 11:00-16:00,+05:00,,,89000382924,89920263631,,,,,,,,,,,,,,,,,,,56.773131,60.623612,https://2gis.com/firm/70000001115336219,branch
Компания по производству мягкой мебели для офисов и кафе,,Мебель на заказ; Мягкая мебель,"Ржевская улица, 98",,620039,Уралмаш м-н,Орджоникидзевский район,Екатеринбург,Екатеринбург городской округ,Свердловская область,Россия,Пн: 09:00-20:00; Вт: 09:00-20:00; Ср: 09:00-20:00; Чт: 09:00-20:00; Пт: 09:00-20:00; Сб: 09:00-20:00,+05:00,,,,,,,,,,,,,https://wa.me/79827519435,,,,,,,,,,56.882445,60.555643,https://2gis.com/firm/70000001043454481,branch
Компания по сборке мебели,,Мебель на заказ; Сборка мебели; Ремонт мебели,"улица Чемпионов, 1",,620103,Солнечный м-н,Чкаловский район,Екатеринбург,Екатеринбург городской округ,Свердловская область,Россия,"Пн: 09:00-13:00, 14:00-21:00; Вт: 09:00-13:00, 14:00-21:00; Ср: 09:00-13:00, 14:00-21:00; Чт: 09:00-13:00, 14:00-21:00; Пт: 09:00-13:00, 14:00-21:00; Сб: 09:00-13:00, 14:00-21:00",+05:00,,,89024424301,,,,,,,,,,,,,,,,https://t.me/Plotnikov_Pavel7,,,,56.747372,60.571424,https://2gis.com/firm/70000001112713042,branch
Компания по изготовлению корпусной мебели,,Мебель на заказ; Корпусная мебель,"Западная улица, 19",,623721,,,,Березовский муниципальный округ,Свердловская область,Россия,Пн: 10:00-20:00; Вт: 10:00-20:00; Ср: 10:00-20:00; Чт: 10:00-20:00; Пт: 10:00-20:00; Сб: 10:00-20:00,+05:00,,,89221213991 (единая справочная: пн-вс 9:00-21:00),89028742105 (единая справочная - пн-вс 9:00-21:00),,,,,,,,,https://wa.me/79221213991,,,,,,https://t.me/cherkasova86,,,,57.046533,60.845893,https://2gis.com/firm/70000001099128934,branch
Компания по изготовлению корпусной мебели,,Мебель на заказ; Корпусная мебель,"улица Бебеля, 118",2 подъезд,620034,Заречный м-н,Верх-Исетский район,Екатеринбург,Екатеринбург городской округ,Свердловская область,Россия,Пн: 09:00-20:00; Вт: 09:00-20:00; Ср: 09:00-20:00; Чт: 09:00-20:00; Пт: 09:00-20:00; Сб: 10:00-16:00; Вс: 10:00-16:00,+05:00,,,89221213991 (единая справочная: пн-вс 9:00-21:00),89028742105 (единая справочная - пн-вс 9:00-21:00),,,,,,,,,https://wa.me/79221213991,,,,,,https://t.me/cherkasova86,,,,56.849803,60.559935,https://2gis.com/firm/70000001022036842,branch
Компания по производству мебели на заказ,,Мебель на заказ; Мебель для кухни; Корпусная мебель,"проспект Ленина, 31",,624272,,,Асбест,Асбестовский муниципальный округ,Свердловская область,Россия,"Пн: 10:00-13:00, 14:00-19:00; Вт: 10:00-13:00, 14:00-19:00; Ср: 10:00-13:00, 14:00-19:00; Чт: 10:00-13:00, 14:00-19:00; Пт: 10:00-13:00, 14:00-19:00; Сб: 10:00-13:00, 14:00-19:00; Вс: 10:00-13:00, 14:00-19:00",+05:00,,,89221584622,,,,,,,,,,,,,,,,,,,,57.009579,61.460262,https://2gis.com/firm/70000001051647690,branch
Купе Урал,студия мебели,Мебель на заказ; Мебель для кухни; Корпусная мебель; Офисная мебель; Детская мебель,"Верх-Исетский бульвар, 13в",В корпус; 312 офис; 3 этаж,620028,ВИЗ м-н,Верх-Исетский район,Екатеринбург,Екатеринбург городской округ,Свердловская область,Россия,Пн: 10:00-19:00; Вт: 10:00-19:00; Ср: 10:00-19:00; Чт: 10:00-19:00; Пт: 10:00-19:00 (по предварительному звонку),+05:00,3.2,5,89193676150,,,,,,,,,https://vk.com/club117041247,https://wa.me/79193676150,,,,,,,,,,56.837731,60.574345,https://2gis.com/firm/70000001019546031,branch
КухМаркет,офис,Мебель на заказ; Мебель для кухни; Корпусная мебель,"Верх-Исетский бульвар, 13",403 офис; 4 этаж,620028,ВИЗ м-н,Верх-Исетский район,Екатеринбург,Екатеринбург городской округ,Свердловская область,Россия,Пн: 10:00-20:00; Вт: 10:00-20:00; Ср: 10:00-20:00; Чт: 10:00-20:00; Пт: 10:00-20:00; Сб: 10:00-20:00; Вс: 10:00-20:00 (по предварительному звонку),+05:00,3.0,2,89045468628,,,,,,,,,,https://wa.me/79045468628,,,,,,,,,,56.838283,60.573993,https://2gis.com/firm/70000001065291969,branch
Кухни 2.0,компания,Мебель на заказ; Мебель для кухни; Корпусная мебель,,,,,,Екатеринбург,Екатеринбург городской округ,Свердловская область,Россия,Пн: 10:00-20:00; Вт: 10:00-20:00; Ср: 10:00-20:00; Чт: 10:00-20:00; Пт: 10:00-20:00; Сб: 10:00-20:00; Вс: 10:00-20:00,+05:00,5.0,11,89226107020,,,,,,,,,,https://wa.me/79226107020,,,,,,,,,,,,https://2gis.com/firm/70000001066422703,branch
КрыльцOff,столярная мастерская,Мебель на заказ; Товары для бань и саун; Строительство бань и саун; Корпусная мебель,"улица Кирова, 26 к4",,623700,,,Березовский,Березовский муниципальный округ,Свердловская область,Россия,Пн: 09:00-20:00; Вт: 09:00-20:00; Ср: 09:00-20:00; Чт: 09:00-20:00; Пт: 09:00-20:00; Сб: 09:00-20:00,+05:00,4.0,4,89292138001,,,,,,,,,,https://wa.me/79292138001,,,,,,,,,,56.915018,60.795675,https://2gis.com/firm/70000001078309831,branch
Лестницы Екатеринбурга,торговая компания,Мебель на заказ; Интерьерные лестницы,"улица Данилы Зверева, 31и",1 этаж,620137,Пионерский м-н,Кировский район,Екатеринбург,Екатеринбург городской округ,Свердловская область,Россия,Пн: 09:00-21:00; Вт: 09:00-21:00; Ср: 09:00-21:00; Чт: 09:00-21:00; Пт: 09:00-21:00; Сб: 09:00-21:00; Вс: 09:00-21:00 (по предварительному звонку),+05:00,,,,,,,,,,,,,,,,,,,,,,,56.871105,60.649298,https://2gis.com/firm/70000001115222486,branch
Лига цвета,производственная компания,Мебель на заказ; Офисная мебель; Мебель для кухни; Мебельные фасады; Торгово-выставочное оборудование,"Бисертская улица, 1",,620024,Елизавет м-н,Чкаловский район,Екатеринбург,Екатеринбург городской округ,Свердловская область,Россия,Пн: 10:00-18:00; Вт: 10:00-18:00; Ср: 10:00-18:00; Чт: 10:00-18:00; Пт: 10:00-18:00,+05:00,,,89122087406,,,,,,,,,,https://wa.me/79122087406,,,,,,,,,,56.741386,60.607716,https://2gis.com/firm/1267165676309578,branch
Лилиана,студия мебели,Мебель на заказ; Корпусная мебель; Мебель для кухни,"Профсоюзная улица, 43",-1 этаж,620010,Химмаш м-н,Чкаловский район,Екатеринбург,Екатеринбург городской округ,Свердловская область,Россия,Пн: 10:00-20:00; Вт: 10:00-20:00; Ср: 10:00-20:00; Чт: 10:00-20:00; Пт: 10:00-20:00; Сб: 10:00-20:00; Вс: 10:00-20:00,+05:00,4.8,78,83432878745,,,,,,,,,https://vk.com/club45585362,,,,,,,,,,,56.75425,60.691681,https://2gis.com/firm/70000001007326921,branch
Лазурит-купе,цех,Мебель на заказ; Корпусная мебель; Мебель для кухни,"Уральская улица, 66",,623700,,,Березовский,Березовский муниципальный округ,Свердловская область,Россия,Пн: 09:00-18:00; Вт: 09:00-18:00; Ср: 09:00-18:00; Чт: 09:00-18:00; Пт: 09:00-18:00; Сб: 09:00-18:00; Вс: 09:00-18:00 (по предварительному звонку),+05:00,3.0,1,83432682617,89045438087,,,,,,,,,https://wa.me/79045438087,,,,,,,,,,56.905719,60.785245,https://2gis.com/firm/1267165677111719,branch
Ламель,компания по производству мебели,Мебель на заказ; Корпусная мебель,"улица Толедова, 43Б",2 этаж,620990,Заречный м-н,Верх-Исетский район,Екатеринбург,Екатеринбург городской округ,Свердловская область,Россия,Пн: 09:00-18:00; Вт: 09:00-18:00; Ср: 09:00-18:00; Чт: 09:00-18:00; Пт: 09:00-18:00,+05:00,5.0,1,89090171982,,,,,,,,,,https://wa.me/79090171982,,,,,,https://t.me/+79090171982,,,,56.854083,60.546713,https://2gis.com/firm/70000001114285879,branch
Лауд Лаб,компания,Мебель на заказ; Изготовление рекламных конструкций; Световая реклама; Быстровозводимые здания,"улица Ленина, 51",,624013,,,,Сысертский муниципальный округ,Свердловская область,Россия,Пн: 10:00-18:00; Вт: 10:00-18:00; Ср: 10:00-18:00; Чт: 10:00-18:00; Пт: 10:00-18:00,+05:00,,,89222080827,,,,,,,,,https://vk.com/vyveskiurala_ru,,,,,,,,,,,56.6258,61.018049,https://2gis.com/firm/70000001105261644,branch
Леди Стол,магазин столов и стульев,Мебель на заказ; Мебель для кухни; Офисная мебель,"улица Бахчиванджи, 2 лит С4",1 этаж,620025,Кольцово м-н,Октябрьский район,Екатеринбург,Екатеринбург городской округ,Свердловская область,Россия,Пн: 09:00-19:00; Вт: 09:00-19:00; Ср: 09:00-19:00; Чт: 09:00-19:00; Пт: 09:00-19:00; Сб: 09:00-19:00; Вс: 09:00-19:00,+05:00,5.0,1,89221071709,,,,,,,,,,https://wa.me/79827524311,,,viber://chat/?number=79827524311,,,https://t.me/+79827524311,,,,56.76024,60.803806,https://2gis.com/firm/70000001093464459,branch
Мастерская корпусной мебели,,Мебель на заказ; Корпусная мебель,"Турбинная улица, 41Б",1 этаж,620091,Эльмаш м-н,Орджоникидзевский район,Екатеринбург,Екатеринбург городской округ,Свердловская область,Россия,Пн: 09:00-18:00; Вт: 09:00-18:00; Ср: 09:00-18:00; Чт: 09:00-18:00; Пт: 09:00-18:00,+05:00,5.0,1,89122804320,,,,,,,,,,https://wa.me/79122804320,,,,,,,,,,56.874625,60.628706,https://2gis.com/firm/70000001023930586,branch
Мастерская мебели,ИП Иванов М.Г.,Мебель на заказ; Корпусная мебель; Мебель для кухни,"Берёзовский тракт, 5а",,623700,,,Березовский,Березовский муниципальный округ,Свердловская область,Россия,Пн: 09:00-18:00; Вт: 09:00-18:00; Ср: 09:00-18:00; Чт: 09:00-18:00; Пт: 09:00-18:00 (по предварительному звонку),+05:00,,,89527298378,,,,,,,,,https://vk.com/mebel_m_i,,,,,,,,,,,56.903972,60.770848,https://2gis.com/firm/70000001113530887,branch
Мастерская по изготовлению и перетяжке мебели,,Мебель на заказ; Мягкая мебель; Ремонт мебели,"улица Фронтовых Бригад, 18 к2",213 помещение; 2 этаж,620091,Эльмаш м-н,Орджоникидзевский район,Екатеринбург,Екатеринбург городской округ,Свердловская область,Россия,Пн: 10:00-22:00; Вт: 10:00-22:00; Ср: 10:00-22:00; Чт: 10:00-22:00; Пт: 10:00-22:00; Сб: 10:00-22:00; Вс: 10:00-22:00 (по предварительной записи),+05:00,5.0,3,89678540560,,,,,,,,,https://vk.com/workshopmebelekb,https://wa.me/79678540560,,,,,,https://t.me/+79678540560,,,,56.87762,60.638714,https://2gis.com/firm/70000001069295397,branch
МебелеС,салон мебели,Мебель на заказ; Корпусная мебель,"Театральная улица, 6",2 этаж,623701,,,Березовский,Березовский муниципальный округ,Свердловская область,Россия,Вт: 10:00-19:00; Ср: 10:00-19:00; Чт: 10:00-19:00; Пт: 10:00-19:00; Сб: 10:00-18:00; Вс: 10:00-18:00,+05:00,5.0,1,89018504855,,,,,,,,,https://vk.com/mebeles_salon,,,,,,,,,,,56.907256,60.810316,https://2gis.com/firm/70000001100304165,branch
Мебель-Маркет,,Мебель на заказ; Корпусная мебель; Мягкая мебель; Мебель для кухни; Офисная мебель; Детская мебель; Домашний текстиль,"улица Жуковского, 25",1 этаж,623286,,,Ревда,Ревда муниципальный округ,Свердловская область,Россия,Пн: 10:00-19:00; Вт: 10:00-19:00; Ср: 10:00-19:00; Чт: 10:00-19:00; Пт: 10:00-19:00; Сб: 10:00-19:00; Вс: 10:00-18:00,+05:00,2.5,1,89221000091,,,,,,,,,https://vk.com/mebelmarket.revda,,,,,,,https://t.me/+79221000091,,,,56.799193,59.904336,https://2gis.com/firm/70000001007543211,branch
Мебель+,салон,Мебель на заказ; Офисная мебель; Мягкая мебель; Корпусная мебель; Мебель для кухни,"улица Ленина, 23а",2 этаж,623101,Центр м-н,,Первоуральск,Первоуральск муниципальный округ,Свердловская область,Россия,Пн: 10:00-19:00; Вт: 10:00-19:00; Ср: 10:00-19:00; Чт: 10:00-19:00; Пт: 10:00-19:00; Сб: 10:00-19:00; Вс: 10:00-17:00,+05:00,4.0,2,,,,,,,,,,,,,,,,,,,,,56.913796,59.943131,https://2gis.com/firm/70000001007002545,branch
Мебелье,мебельная компания,Мебель на заказ; Мебель для кухни; Корпусная мебель; Мебель для ванных комнат,"Московская улица, 35",1 этаж,620014,Центр м-н,Ленинский район,Екатеринбург,Екатеринбург городской округ,Свердловская область,Россия,Пн: 10:00-19:00; Вт: 10:00-19:00; Ср: 10:00-19:00; Чт: 10:00-19:00; Пт: 10:00-19:00 (по предварительной записи),+05:00,4.7,20,89001971374,,,,,http://t.me/mebele66,,,,https://vk.com/mebele66,https://wa.me/79001971374,,,,,,,,,,56.835346,60.582654,https://2gis.com/firm/70000001069935001,branch
Мебельная компания,,Мебель на заказ; Корпусная мебель; Мебель для кухни; Детская мебель; Мебель для учебных учреждений,"Вайнера, 21",,623702,,,Березовский,Березовский муниципальный округ,Свердловская область,Россия,Пн: 09:00-20:00; Вт: 09:00-20:00; Ср: 09:00-20:00; Чт: 09:00-20:00; Пт: 09:00-20:00; Сб: 09:00-20:00; Вс: 09:00-20:00,+05:00,,,89058067977,,,,,,,,,,https://wa.me/79058067977,,,,,,,,,,56.895789,60.818063,https://2gis.com/firm/70000001089547337,branch
Мебельная лавка,,Мебель на заказ; Офисная мебель; Детская мебель; Корпусная мебель; Мебель для кухни,"Лукиных, 1/13",,620039,Уралмаш м-н,Орджоникидзевский район,Екатеринбург,Екатеринбург городской округ,Свердловская область,Россия,Пн: 09:00-18:00; Вт: 09:00-18:00; Ср: 09:00-18:00; Чт: 09:00-18:00; Пт: 09:00-18:00,+05:00,3.5,8,89221089071,,,,,,,,,,https://wa.me/79221089071,,,,,,,,,,56.882014,60.572965,https://2gis.com/firm/1267165677118980,branch
Мебельная фабрика,,Мебель на заказ; Корпусная мебель,"улица Бахчиванджи, 2а/17",,620025,Кольцово м-н,Октябрьский район,Екатеринбург,Екатеринбург городской округ,Свердловская область,Россия,Пн: 10:00-18:00; Вт: 10:00-18:00; Ср: 10:00-18:00; Чт: 10:00-18:00; Пт: 10:00-18:00; Сб: 10:00-18:00,+05:00,,,89826269318,,,,,,,,,,,,,,,,,,,,56.757267,60.796887,https://2gis.com/firm/70000001113402142,branch
Мебельное решение для бизнеса,производственная компания,"Мебель на заказ; Распиловка древесины; Офисная мебель; Стеллажи и витрины; ЛДСП, ДВПО, МДФ; Торгово-выставочное оборудование","Выездной переулок, 3и",,620027,Вокзальный м-н,Железнодорожный район,Екатеринбург,Екатеринбург городской округ,Свердловская область,Россия,Пн: 10:00-19:00; Вт: 10:00-19:00; Ср: 10:00-19:00; Чт: 10:00-19:00; Пт: 10:00-19:00,+05:00,3.3,23,89623133363,,,,,,,,,https://vk.com/mrb_ekb,https://wa.me/79623133363,,,,,,,,,,56.857845,60.580382,https://2gis.com/firm/70000001065276532,branch
Мебельный рай,магазин,Мебель на заказ; Мягкая мебель; Корпусная мебель; Мебель для кухни; Матрасы,"улица Исакова, 7",1 этаж,623700,,,Березовский,Березовский муниципальный округ,Свердловская область,Россия,Пн: 11:00-19:00; Вт: 11:00-19:00; Ср: 11:00-19:00; Чт: 11:00-19:00; Пт: 11:00-19:00; Сб: 11:00-16:00; Вс: 11:00-16:00 (по предварительной записи),+05:00,3.4,5,89126663637,,,,,,,,,,,,,,,,,,,,56.909678,60.803807,https://2gis.com/firm/70000001028429040,branch
Мебельный рай,производственная компания,Мебель на заказ; Мебель для кухни; Корпусная мебель; Детская мебель; Офисная мебель,"Автомагистральная улица, 25 к2",,620141,Новая Сортировка м-н,Железнодорожный район,Екатеринбург,Екатеринбург городской округ,Свердловская область,Россия,Пн: 09:00-18:00; Вт: 09:00-18:00; Ср: 09:00-18:00; Чт: 09:00-18:00; Пт: 09:00-18:00,+05:00,5.0,4,89089016461,,,,,,,,,,https://wa.me/79089016461,,,,,,,,,,56.873185,60.559354,https://2gis.com/firm/1267166676215071,branch
Мебельный салон,,Мебель на заказ; Мебельные магазины; Корпусная мебель; Мягкая мебель; Детская мебель; Мебель для кухни,"улица Халтурина, 37/12","112-113, 121-123 павильон",620034,Заречный м-н,Верх-Исетский район,Екатеринбург,Екатеринбург городской округ,Свердловская область,Россия,Вт: 10:00-17:00; Ср: 10:00-17:00; Чт: 10:00-17:00; Пт: 10:00-17:00; Сб: 10:00-17:00; Вс: 10:00-17:00,+05:00,3.8,3,89122229457 (единый номер: пн-вс 10:00-20:00),,,,,,,,,,,,,,,,,,,,56.849412,60.552188,https://2gis.com/firm/70000001022135630,branch
Мебелефф,мебельная компания,Мебель на заказ; Корпусная мебель,"улица Титова, 33а",1 этаж,620085,Вторчермет м-н,Чкаловский район,Екатеринбург,Екатеринбург городской округ,Свердловская область,Россия,Пн: 09:00-17:00; Вт: 09:00-17:00; Ср: 09:00-17:00; Чт: 09:00-17:00; Пт: 09:00-17:00 (по предварительному звонку),+05:00,,,89220309997,,,,,,,,,,https://wa.me/79220309997,,,,,,,,,,56.770399,60.614991,https://2gis.com/firm/70000001023177502,branch
Мебелит,,Мебель на заказ; Мебель для кухни; Корпусная мебель,"улица Аксакова, 83",,620010,Нижне-Исетский м-н,Чкаловский район,Екатеринбург,Екатеринбург городской округ,Свердловская область,Россия,Пн: 10:00-20:00; Вт: 10:00-20:00; Ср: 10:00-20:00; Чт: 10:00-20:00; Пт: 10:00-20:00; Сб: 10:00-20:00; Вс: 10:00-20:00,+05:00,5.0,1,89827087802,,,,,http://t.me/mebelit_ekb,,,,https://vk.com/mebelit96,,,,,,,,,,,56.746725,60.674266,https://2gis.com/firm/70000001097508241,branch
Мебель Вам,мебельный салон,Мебель на заказ; Офисная мебель; Детская мебель; Мебель для кухни; Матрасы,"улица Ватутина, 33",1 этаж,623104,Соцгород м-н,,Первоуральск,Первоуральск муниципальный округ,Свердловская область,Россия,Пн: 10:00-19:00; Вт: 10:00-19:00; Ср: 10:00-19:00; Чт: 10:00-19:00; Пт: 10:00-19:00 (по предварительному звонку),+05:00,3.6,10,89090004453,83439271370,,,,,,,,https://vk.com/mebelvampvk,,,,,,,https://t.me/+79090004453,,,,56.901702,59.941519,https://2gis.com/firm/70000001007008279,branch
Мебель для всех,мебельный магазин,Мебель на заказ; Мебельные магазины; Мягкая мебель; Корпусная мебель; Мебель для кухни,"Строителей, 8а/24",,624071,,,Среднеуральск,Среднеуральск муниципальный округ,Свердловская область,Россия,Пн: 10:00-19:00; Вт: 10:00-19:00; Ср: 10:00-19:00; Чт: 10:00-19:00; Пт: 10:00-19:00; Сб: 10:00-18:00; Вс: 10:00-18:00,+05:00,,,,,,,,,,,,,,,,,,,,,,,56.991073,60.478277,https://2gis.com/firm/70000001032690544,branch
Мир комфортной мебели,салон,Мебель на заказ; Мебельные магазины; Мягкая мебель,"40-летия Комсомола, 38л",А корпус; 2 этаж,620072,ЖБИ м-н,Кировский район,Екатеринбург,Екатеринбург городской округ,Свердловская область,Россия,Пн: 10:00-21:00; Вт: 10:00-21:00; Ср: 10:00-21:00; Чт: 10:00-21:00; Пт: 10:00-21:00; Сб: 10:00-21:00; Вс: 10:00-21:00,+05:00,3.0,2,89041632232,,,,,http://t.me/mebeldivan96,,,,,,,,,,,,,,,56.823823,60.702376,https://2gis.com/firm/70000001055045785,branch
Мир Уюта,фирма по изготовлению мебели на заказ,Мебель на заказ; Корпусная мебель; Мебель для кухни; Офисная мебель,"Тальковая улица, 2",,620904,Шабровский пос.,Чкаловский район,Екатеринбург,Екатеринбург городской округ,Свердловская область,Россия,Пн: 09:00-18:00; Вт: 09:00-18:00; Ср: 09:00-18:00; Чт: 09:00-18:00; Пт: 09:00-18:00,+05:00,5.0,7,89920097418,,,,,,,,,https://vk.com/id859955487,https://wa.me/79920097418,,,,,,,,,,56.633243,60.604658,https://2gis.com/firm/70000001088728905,branch
Мк-Мебель,,Мебель на заказ; Мебель для кухни,"Лесозаводской переулок, 6/6",1 этаж,624070,,,Среднеуральск,Среднеуральск муниципальный округ,Свердловская область,Россия,Пн: 10:00-18:00; Вт: 10:00-18:00; Ср: 10:00-18:00; Чт: 10:00-18:00; Пт: 10:00-18:00; Сб: 10:00-18:00; Вс: 10:00-18:00,+05:00,,,89024401512,,,,,,,,,https://vk.com/club230278672,,,,,,,,,,,56.992874,60.457572,https://2gis.com/firm/70000001105138253,branch
МебельШик,,Мебель на заказ; Детская мебель; Мягкая мебель,"Центральная улица, 15",,624005,,,,Сысертский муниципальный округ,Свердловская область,Россия,Пн: 09:00-18:00; Вт: 09:00-18:00; Ср: 09:00-18:00; Чт: 09:00-18:00; Пт: 09:00-18:00; Сб: 09:00-18:00; Вс: 09:00-18:00,+05:00,4.9,20,89326119896,,,,,http://t.me/mebel_shik_ekb,,,,https://vk.com/mebel_shik_ekb,https://wa.me/79326119896,,,,,,,,,,56.629837,60.816457,https://2gis.com/firm/70000001081883997,branch
Медема,мебельная фабрика,Мебель на заказ; Корпусная мебель; Мебель для кухни; Детская мебель; Торгово-выставочное оборудование; Офисная мебель; Медицинская и лабораторная мебель; Мебель для учебных учреждений; Мебель для общественного питания; Мебель для ванных комнат,"Ленинский посёлок, 27в",,623700,,,Березовский,Березовский муниципальный округ,Свердловская область,Россия,Пн: 09:00-18:00; Вт: 09:00-18:00; Ср: 09:00-18:00; Чт: 09:00-18:00; Пт: 09:00-18:00,+05:00,4.5,46,89122408772,83433790583,89058055059,,,,,,,https://vk.com/medema,https://wa.me/79122408772,https://wa.me/79058055059,,,,,https://t.me/+79122408772,,,,56.932517,60.781372,https://2gis.com/firm/1267165676838170,branch
Медная гора,мебельная компания,Мебель на заказ; Мебельные фасады; Погонажные изделия; Стеновые панели; Корпусная мебель; Мебель для кухни,"Лукиных, 5",211 офис; 2 этаж,620039,Уралмаш м-н,Орджоникидзевский район,Екатеринбург,Екатеринбург городской округ,Свердловская область,Россия,Пн: 10:00-17:00; Вт: 10:00-17:00; Ср: 10:00-17:00; Чт: 10:00-17:00; Пт: 10:00-17:00,+05:00,,,89536041385,,,,,,,,,https://vk.com/mgfasad,https://wa.me/79536041385,,,,,,https://t.me/+79536041385,,,,56.881701,60.564341,https://2gis.com/firm/70000001025373213,branch
Ника,мебельная фабрика,Мебель на заказ; Мебельные фабрики; Мягкая мебель,"Бисертская улица, 132а лит И",,620024,Елизавет м-н,Чкаловский район,Екатеринбург,Екатеринбург городской округ,Свердловская область,Россия,Пн: 09:00-18:00; Вт: 09:00-18:00; Ср: 09:00-18:00; Чт: 09:00-18:00; Пт: 09:00-18:00,+05:00,4.1,9,89086384766,89086340022,,mfnika96@gmail.com,,,,,,https://vk.com/public212269758,https://wa.me/79086384766,https://wa.me/79086340022,,,,,https://t.me/+79086340022,,,,56.758096,60.630955,https://2gis.com/firm/70000001007313661,branch
НК,мастерская декора и предметов интерьера,Мебель на заказ; Художественные мастерские; Сувениры; Корпусная мебель; Декоративные отделочные материалы,"Черкасская улица, 10ж",,620043,Юго-Западный м-н,Верх-Исетский район,Екатеринбург,Екатеринбург городской округ,Свердловская область,Россия,Пн: 09:00-20:00; Вт: 09:00-20:00; Ср: 09:00-20:00; Чт: 09:00-20:00; Пт: 09:00-20:00 (по предварительному звонку),+05:00,5.0,9,89923376074,,,,,,,,,https://vk.com/newkeya,https://wa.me/79923376074,,,,,,https://t.me/+79923376074,,,,56.822964,60.554622,https://2gis.com/firm/70000001079761874,branch
Миладочь,столярная мастерская,Мебель на заказ; Корпусная мебель,"Серова улица, 33",,624191,,,Невьянск,Невьянский муниципальный округ,Свердловская область,Россия,Пн: 09:00-18:00; Вт: 09:00-18:00; Ср: 09:00-18:00; Чт: 09:00-18:00; Пт: 09:00-18:00,+05:00,,,89527345722,89022543054,,,,,,,,https://vk.com/miladoch,https://wa.me/79022543054,,,,,,,,,,57.49798,60.187702,https://2gis.com/firm/70000001089317306,branch
Новый век,,Мебель на заказ; Корпусная мебель,"микрорайон Зелёный Бор-1, 5а",4 офис; 1 этаж,623382,Зелёный Бор-1 м-н,,Полевской,Полевской муниципальный округ,Свердловская область,Россия,Пн: 10:00-18:00; Вт: 10:00-18:00; Ср: 10:00-18:00; Чт: 10:00-18:00; Пт: 10:00-18:00; Сб: 10:00-15:00,+05:00,,,89045433532,,,,,,,,,,,,,,,,,,,,56.505886,60.266147,https://2gis.com/firm/70000001115032336,branch
Нота-Мебель,магазин мебели,Мебель на заказ; Корпусная мебель; Мягкая мебель; Мебель для кухни,"улица Свердлова, 1",цокольный этаж,623388,,,Полевской,Полевской муниципальный округ,Свердловская область,Россия,Пн: 10:00-19:00; Вт: 10:00-19:00; Ср: 10:00-19:00; Чт: 10:00-19:00; Пт: 10:00-19:00; Сб: 10:00-18:00; Вс: 10:00-18:00,+05:00,,,89530090001,89530090002,,,,,,,,,,,,,,,,,,,56.491894,60.241199,https://2gis.com/firm/70000001105847481,branch
ОкДиван,фабрика мягкой мебели,Мебель на заказ; Мягкая мебель; Стеновые панели; Мебель для кухни; Корпусная мебель; Мебель для общественного питания,"Садовая улица, 1Б ст2",,620902,Горный Щит с.,Чкаловский район,Екатеринбург,Екатеринбург городской округ,Свердловская область,Россия,Пн: 10:00-19:00; Вт: 10:00-19:00; Ср: 10:00-19:00; Чт: 10:00-19:00; Пт: 10:00-19:00; Сб: 10:00-19:00; Вс: 10:00-19:00,+05:00,,,89030830300,,,,,,,,,https://vk.com/mebelnazakaz_okdivan,,,,,,,,,,,56.691643,60.504962,https://2gis.com/firm/70000001105301443,branch
Оливия Кухни,мебельная компания по производству кухонной и корпусной мебели,Мебель на заказ; Мебель для кухни; Корпусная мебель,"улица Толедова, 43Б",,620990,Заречный м-н,Верх-Исетский район,Екатеринбург,Екатеринбург городской округ,Свердловская область,Россия,Пн: 10:00-20:00; Вт: 10:00-20:00; Ср: 10:00-20:00; Чт: 10:00-20:00; Пт: 10:00-20:00; Сб: 10:00-20:00; Вс: 10:00-20:00,+05:00,5.0,3,89221229154 (доп.1),89221016395,89043815311,,,,,,,https://vk.com/olivia_kuhni,,,,,,,,,,,56.854083,60.546713,https://2gis.com/firm/70000001113683947,branch
Отец и сын,кузница,"Мебель на заказ; Сварочные работы; Кованые изделия; Интерьерные лестницы; Мангалы, коптильни, тандыры","улица Самстроя, 17Б",1 этаж,624022,,,Сысерть,Сысертский муниципальный округ,Свердловская область,Россия,Пн: 08:00-19:00; Вт: 08:00-19:00; Ср: 08:00-19:00; Чт: 08:00-19:00; Пт: 08:00-19:00 (по предварительному звонку),+05:00,5.0,2,89827282118,,,,,,,,,https://vk.com/public83925502,https://wa.me/79827282118,https://wa.me/79222274061,,,,,,,,,56.50868,60.83394,https://2gis.com/firm/70000001051644627,branch
Офис,Компания по изготовлению мебели на заказ,Мебель на заказ; Мебель для кухни; Корпусная мебель,"улица Татищева, 92",8 офис; 2 этаж,620131,ВИЗ м-н,Верх-Исетский район,Екатеринбург,Екатеринбург городской округ,Свердловская область,Россия,Пн: 10:00-19:00; Вт: 10:00-19:00; Ср: 10:00-19:00; Чт: 10:00-19:00; Пт: 10:00-19:00,+05:00,5.0,1,89122292146,,,,,,,,,https://vk.com/mebeldlyadoma_ekb,https://wa.me/79122292146,,,,,,https://t.me/+79122292146,https://t.me/79122292146,,,56.837796,60.545162,https://2gis.com/firm/70000001104775079,branch
Молвинец,компания по производству мебели,Мебель на заказ; Офисная мебель; Мягкая мебель; Мебель для кухни,"улица Ленина, 5Б",,624070,,,Среднеуральск,Среднеуральск муниципальный округ,Свердловская область,Россия,"Пн: 09:00-13:00, 14:00-18:00; Вт: 09:00-13:00, 14:00-18:00; Ср: 09:00-13:00, 14:00-18:00; Чт: 09:00-13:00, 14:00-18:00; Пт: 09:00-13:00, 14:00-18:00",+05:00,3.0,6,89221456244 (директор),,,,,,,,,https://vk.com/mebelmolvinec,,,,,,,,,,,56.993365,60.464215,https://2gis.com/firm/70000001088807318,branch
Монолит,,Мебель на заказ; Мебель для кухни; Корпусная мебель,"1-я Баритовая, 113г",,,Свободный 2 м-н,Чкаловский район,Екатеринбург,Екатеринбург городской округ,Свердловская область,Россия,Пн: 08:00-17:00; Вт: 08:00-17:00; Ср: 08:00-17:00; Чт: 08:00-17:00; Пт: 08:00-17:00,+05:00,5.0,1,89321248526,,,,,,,,,,,,,,,,https://t.me/+79321248526,,,,56.68822,60.574856,https://2gis.com/firm/70000001111511119,branch
Моя мебель,мебельный салон,Мебель на заказ; Мебельные магазины; Корпусная мебель; Мебель для кухни; Офисная мебель; Мебельные фасады; Детская мебель,"40-летия Комсомола, 38л",А корпус; 1 этаж; правое крыло,620072,ЖБИ м-н,Кировский район,Екатеринбург,Екатеринбург городской округ,Свердловская область,Россия,Пн: 10:00-21:00; Вт: 10:00-21:00; Ср: 10:00-21:00; Чт: 10:00-21:00; Пт: 10:00-21:00; Сб: 10:00-21:00; Вс: 10:00-21:00,+05:00,4.9,59,83432907877,89028711889,,,,http://t.me/mymebelekb,,,,https://vk.com/my_mebel66,,,,,,,,,,,56.823929,60.703056,https://2gis.com/firm/70000001034138826,branch
Муза идей,студия мебели,Мебель на заказ; Корпусная мебель; Мебель для кухни,"Профсоюзная улица, 43",-1 этаж,620010,Химмаш м-н,Чкаловский район,Екатеринбург,Екатеринбург городской округ,Свердловская область,Россия,Пн: 10:00-20:00; Вт: 10:00-20:00; Ср: 10:00-20:00; Чт: 10:00-20:00; Пт: 10:00-20:00; Сб: 10:00-20:00; Вс: 10:00-20:00,+05:00,3.9,9,89530464868,89827411702,,,,,,,,https://vk.com/flamiaekb,,,,,,,,,,,56.75425,60.691681,https://2gis.com/firm/70000001057401785,branch
МШКС Сталь,,Мебель на заказ; Офисная мебель; Дизайн интерьеров; Интерьерные лестницы; Кованые изделия; Металлическая мебель; Металлоизделия; Заборы и ограждения,"улица Щербакова, 150",335 офис,620076,Уктус м-н,Чкаловский район,Екатеринбург,Екатеринбург городской округ,Свердловская область,Россия,Пн: 09:00-18:00; Вт: 09:00-18:00; Ср: 09:00-18:00; Чт: 09:00-18:00; Пт: 09:00-18:00 (по предварительной записи),+05:00,5.0,5,89677771411,89058940246,,,,,,,,,https://wa.me/79677771411,,,,,,,,,,56.766505,60.672669,https://2gis.com/firm/70000001091448961,branch
Плотниковъ,,Мебель на заказ; Мебель для кухни; Корпусная мебель,"улица Победы, 19",,624272,,,Асбест,Асбестовский муниципальный округ,Свердловская область,Россия,Пн: 10:00-18:30; Вт: 10:00-18:30; Ср: 10:00-18:30; Чт: 10:00-18:30; Пт: 10:00-18:30; Сб: 10:00-16:00,+05:00,,,89090077656,,,,,,,,,,,,,,,,,,,,57.013907,61.457086,https://2gis.com/firm/70000001051654861,branch
Престиж,студия мебели,Мебель на заказ; Ремонт мебели; Мягкая мебель,"улица 8 Марта, 45а",620 офис; 6 этаж,620063,Центр м-н,Ленинский район,Екатеринбург,Екатеринбург городской округ,Свердловская область,Россия,Пн: 09:00-17:00; Вт: 09:00-17:00; Ср: 09:00-17:00; Чт: 09:00-17:00; Пт: 09:00-17:00; Сб: 09:00-15:00 (по предварительному звонку),+05:00,,,89530488786,,,,,,,,,https://vk.com/id317142323,https://wa.me/79530488786,,,,,,https://t.me/sergey1616,,,,56.82426,60.606221,https://2gis.com/firm/70000001062764399,branch
Проект-М,компания по производству шкафов купе и корпусной мебели под заказ,Мебель на заказ; Корпусная мебель; Мебель для кухни; Детская мебель; Офисная мебель,"улица Металлургов, 84",2 этаж; левое крыло,620131,ВИЗ м-н,Верх-Исетский район,Екатеринбург,Екатеринбург городской округ,Свердловская область,Россия,Пн: 10:00-21:00; Вт: 10:00-21:00; Ср: 10:00-21:00; Чт: 10:00-21:00; Пт: 10:00-21:00; Сб: 10:00-21:00; Вс: 10:00-21:00,+05:00,1.3,3,89521340088,,,,,,,,,https://vk.com/pmekbrus,https://wa.me/79521340088,,,,,,,,,,56.827929,60.50832,https://2gis.com/firm/70000001006360331,branch
Производственная компания,,Мебель на заказ; Офисная мебель; Распиловка древесины; Корпусная мебель; Мебель для кухни; Детская мебель; Медицинская и лабораторная мебель; Мебель для учебных учреждений; Мебель для общественного питания,"проспект Космонавтов, 107а/3",2 этаж,620058,Уралмаш м-н,Орджоникидзевский район,Екатеринбург,Екатеринбург городской округ,Свердловская область,Россия,Пн: 08:30-17:00; Вт: 08:30-17:00; Ср: 08:30-17:00; Чт: 08:30-17:00; Пт: 08:30-17:00,+05:00,5.0,1,89533874074,83433002422,,,,,,,,,,,,,,,https://t.me/+79533874074,,,,56.928853,60.609959,https://2gis.com/firm/70000001035329056,branch
Просто лофт,мастерская,Мебель на заказ; Металлическая мебель; Офисная мебель,"улица Гагарина, 8",018 офис; цокольный этаж,620062,Втузгородок м-н,Кировский район,Екатеринбург,Екатеринбург городской округ,Свердловская область,Россия,Пн: 10:00-19:30; Вт: 10:00-19:30; Ср: 10:00-19:30; Чт: 10:00-19:30; Пт: 10:00-19:30; Сб: 11:00-19:30,+05:00,,,89655200520,,,,,,,,,,https://wa.me/79655200520,,,,,,,,,,56.846329,60.643558,https://2gis.com/firm/70000001039300690,branch
Профиль-мебель,,Мебель на заказ; Мебельные фабрики; Мягкая мебель; Корпусная мебель,"Новостроя, 19а",,620024,Уктус м-н,Чкаловский район,Екатеринбург,Екатеринбург городской округ,Свердловская область,Россия,Пн: 10:00-22:00; Вт: 10:00-22:00; Ср: 10:00-22:00; Чт: 10:00-22:00; Пт: 10:00-22:00; Сб: 10:00-22:00; Вс: 10:00-22:00,+05:00,,,89221926020,83435215042,,,,,,,,https://vk.com/profile_mebel,,,,viber://chat/?number=79221926020,,,https://t.me/+79221926020,,,,56.77157,60.62444,https://2gis.com/firm/70000001113400131,branch
Рябинушка,компания по производству мебели,Мебель на заказ; Корпусная мебель; Офисная мебель,"Сиреневый бульвар, 15Б",,620072,ЖБИ м-н,Кировский район,Екатеринбург,Екатеринбург городской округ,Свердловская область,Россия,Пн: 09:00-21:00; Вт: 09:00-21:00; Ср: 09:00-21:00; Чт: 09:00-21:00; Пт: 09:00-21:00; Сб: 09:00-21:00; Вс: 09:00-21:00 (по предварительной записи),+05:00,,,89089043239,89326124788,89956630615,,,http://t.me/ryabinushka_ekb,,,,,https://wa.me/79956630615,,,,,,https://t.me/+79089043239,,,,56.83002,60.687498,https://2gis.com/firm/70000001102338495,branch
Саванна,мебельный салон,Мебель на заказ; Мягкая мебель,"улица Бахчиванджи, 2 лит С7",1 этаж,620025,Кольцово м-н,Октябрьский район,Екатеринбург,Екатеринбург городской округ,Свердловская область,Россия,Пн: 09:00-21:00; Вт: 09:00-21:00; Ср: 09:00-21:00; Чт: 09:00-21:00; Пт: 09:00-21:00; Сб: 09:00-21:00; Вс: 09:00-21:00,+05:00,,,89931033370,,,,,,,,,,,,,,,,,,,,56.761057,60.806094,https://2gis.com/firm/70000001093018866,branch
Саванна,мебельный салон,Мебель на заказ; Мебельные магазины; Мягкая мебель,"40-летия Комсомола, 38н",Б корпус; 2 этаж,620072,ЖБИ м-н,Кировский район,Екатеринбург,Екатеринбург городской округ,Свердловская область,Россия,Пн: 10:00-21:00; Вт: 10:00-21:00; Ср: 10:00-21:00; Чт: 10:00-21:00; Пт: 10:00-21:00; Сб: 10:00-21:00; Вс: 10:00-21:00,+05:00,2.3,6,89506343370 (единый номер),,,,,,,,,,,,,,,,,,,,56.82408,60.705925,https://2gis.com/firm/70000001055045774,branch
Салон МС,торговая компания,Мебель на заказ; Жалюзи; Окна; Автоматические ворота и шлагбаумы; Мебель для кухни; Комплектующие для окон; Корпусная мебель; Остекление и отделка балконов; Офисная мебель; Рольставни; Ремонт окон; Детская мебель; Мебель для ванных комнат,"улица Энгельса, 30",,623281,,,Ревда,Ревда муниципальный округ,Свердловская область,Россия,Пн: 10:00-16:00; Вт: 10:00-16:00; Ср: 10:00-16:00; Чт: 10:00-16:00; Пт: 10:00-16:00,+05:00,5.0,1,89126566976,,,,,,,,,,https://wa.me/79126566976,,,,,,https://t.me/+79126566976,,,,56.807214,59.923037,https://2gis.com/firm/70000001007528964,branch
Салон мягкой и корпусной мебели,,Мебель на заказ; Корпусная мебель; Мягкая мебель; Детская мебель; Мебель для кухни; Матрасы,"Пролетарская улица, 82/1",19 павильон,624003,,,Арамиль,Арамильский городской округ,Свердловская область,Россия,Пн: 09:00-17:00; Вт: 09:00-17:00; Ср: 09:00-17:00; Чт: 09:00-17:00; Пт: 09:00-17:00; Сб: 09:00-17:00; Вс: 09:00-17:00,+05:00,5.0,1,89122552229,,,,,,,,,,https://wa.me/79122552229,,,,,,https://t.me/+79122552229,,,,56.71326,60.829936,https://2gis.com/firm/1267166676175502,branch
Санвут,фабрика мебели,Мебель на заказ; Мебель для кухни; Корпусная мебель,"улица Владимира Высоцкого, 50",2 этаж,620072,ЖБИ м-н,Кировский район,Екатеринбург,Екатеринбург городской округ,Свердловская область,Россия,Пн: 10:00-20:00; Вт: 10:00-20:00; Ср: 10:00-20:00; Чт: 10:00-20:00; Пт: 10:00-20:00; Сб: 10:00-20:00; Вс: 10:00-20:00,+05:00,5.0,19,89122700761,89122400189,,opt@sanvut.ru,,http://sanvut.ru/?utm_source=2gis&utm_medium=reklama&utm_campaign=2gis,,,,https://vk.com/sanvutekb,https://wa.me/79122400189,https://wa.me/79122101023,,,,,https://t.me/+79122700761,https://t.me/+79122101023,,,56.843353,60.697972,https://2gis.com/firm/70000001084114366,branch
Санвут,фабрика мебели,Мебель на заказ; Мебельные фабрики; Мебель для кухни; Корпусная мебель; Мебельные магазины; Мебельные фасады,"улица Щорса, 54а",1 этаж,620142,Автовокзал м-н,Ленинский район,Екатеринбург,Екатеринбург городской округ,Свердловская область,Россия,Пн: 08:00-20:00; Вт: 08:00-20:00; Ср: 08:00-20:00; Чт: 08:00-20:00; Пт: 08:00-20:00; Сб: 10:00-20:00; Вс: 10:00-20:00,+05:00,4.8,24,89122101023,89122400189,,opt@sanvut.ru,,http://sanvut.ru/?utm_source=2gis&utm_medium=reklama&utm_campaign=2gis,,,,https://vk.com/sanvutekb,https://wa.me/79122400189,https://wa.me/79122101023,,,,,https://t.me/+79122400189,https://t.me/+79122101023,,,56.810675,60.620297,https://2gis.com/firm/70000001083631633,branch
Ртк-Мебель,мебельная компания,Мебель на заказ; Мягкая мебель; Мебель для кухни; Детская мебель; Офисная мебель,"улица Огнеупорщиков, 14",,624097,,,Верхняя Пышма,Верхняя Пышма городской округ,Свердловская область,Россия,Пн: 09:00-18:00; Вт: 09:00-18:00; Ср: 09:00-18:00; Чт: 09:00-18:00; Пт: 09:00-18:00,+05:00,3.2,10,89826980890,89126054607,,,,,,,,,,,,,,,,,,,56.980445,60.544224,https://2gis.com/firm/70000001080386921,branch
Ральви,магазин мебели,Мебель на заказ; Металлическая мебель; Мебель для кухни,"Электродепо, 3а",,620050,Старая Сортировка м-н,Железнодорожный район,Екатеринбург,Екатеринбург городской округ,Свердловская область,Россия,Пн: 09:00-22:00; Вт: 09:00-22:00; Ср: 09:00-22:00; Чт: 09:00-22:00; Пт: 09:00-22:00,+05:00,1.0,1,,,,,,,,,,https://vk.com/ralvi,,,,,,,https://t.me/+79505536011,,,https://youtube.com/@ralvi_ekb/shorts,56.861267,60.528619,https://2gis.com/firm/70000001081321238,branch
РезнойДекор66,,Мебель на заказ; Фрезеровка неметаллов; Мебельная фурнитура; Интерьерные лестницы; Художественные мастерские; Деревообработка; Погонажные изделия,"Бокситовый проезд, 1 лит А",,620030,Лечебный м-н,Октябрьский район,Екатеринбург,Екатеринбург городской округ,Свердловская область,Россия,Пн: 09:00-18:00; Вт: 09:00-18:00; Ср: 09:00-18:00; Чт: 09:00-18:00; Пт: 09:00-18:00,+05:00,,,,,,,,,,,,,,,,,,,,,,,56.789249,60.734506,https://2gis.com/firm/70000001054352484,branch
Реставрационный цех №47,,Мебель на заказ; Ремонт мебели; Деревообработка,"улица Строителей, 47",желтая металлическая дверь,620050,Старая Сортировка м-н,Железнодорожный район,Екатеринбург,Екатеринбург городской округ,Свердловская область,Россия,Пн: 10:00-19:00; Вт: 10:00-19:00; Ср: 10:00-19:00; Чт: 10:00-19:00; Пт: 10:00-19:00; Сб: 10:00-19:00,+05:00,5.0,1,89024471007,,,,,,,,,https://vk.com/club236276128,https://wa.me/79024471007,,,,,,https://t.me/+79024471007,,,,56.872036,60.510286,https://2gis.com/firm/70000001076389505,branch
Сказка,мебельная компания,Мебель на заказ; Мебельные фабрики; Мягкая мебель; Детская мебель; Матрасы; Мебельные магазины; Корпусная мебель; Стеновые панели; Ткани,"Революционная улица, 11",3 этаж,623700,,,Березовский,Березовский муниципальный округ,Свердловская область,Россия,Пн: 09:00-19:00; Вт: 09:00-19:00; Ср: 09:00-19:00; Чт: 09:00-19:00; Пт: 09:00-19:00; Сб: 11:00-16:00; Вс: 11:00-16:00 (по предварительному звонку),+05:00,5.0,66,89090206867,,,,,,,,,https://vk.com/mebelskazka,https://wa.me/79090206867,,,,,,,,,,56.909899,60.791946,https://2gis.com/firm/70000001052673310,branch
Соло,салон мебели,Мебель на заказ; Корпусная мебель; Мебель для кухни,"проспект Ильича, 16",1 этаж,623103,Соцгород м-н,,Первоуральск,Первоуральск муниципальный округ,Свердловская область,Россия,Пн: 10:00-19:00; Вт: 10:00-19:00; Ср: 10:00-19:00; Чт: 10:00-19:00; Пт: 10:00-19:00; Сб: 10:00-19:00; Вс: 10:00-19:00 (по предварительному звонку),+05:00,5.0,1,89122965599,89655064038,,,,,,,,https://vk.com/solomebelpvk,https://wa.me/79122965599,,,,,,https://t.me/+79122965599,,,,56.903996,59.951526,https://2gis.com/firm/70000001027922016,branch
Столярная мастерская,ИП Захаров С.М.,Мебель на заказ; Мебель для кухни; Интерьерные лестницы; Корпусная мебель,"улица Декабристов, 77и/1",,624022,,,Сысерть,Сысертский муниципальный округ,Свердловская область,Россия,Пн: 08:00-17:00; Вт: 08:00-17:00; Ср: 08:00-17:00; Чт: 08:00-17:00; Пт: 08:00-17:00,+05:00,,,,,,,,,,,,,,,,,,,,,,,56.514634,60.796245,https://2gis.com/firm/70000001061613898,branch
